{
  "listings": [
    {
      "latitude": 39.901733,
      "date": "2026-06-04T21:00:00.000Z",
      "type": "Event",
      "longitude": -75.167594,
      "venue": "recu43PfeOwAs7uI7",
      "name": "Round of 16 (Match 89)",
      "link": "https://www.philadelphiaeagles.com/news/2026-fifa-world-cup-lincoln-financial-field-will-host-6-games",
      "venue_name": "Lincoln Financial Field",
      "group_name": "FIFA World Cup 2026",
      "group": "recX37CIyxy5rQsTK",
      "slug": "round-of-16-match-89"
    },
    {
      "latitude": 39.983433,
      "date": "2026-06-05T00:00:00.000Z",
      "type": "Event",
      "longitude": -75.222908,
      "venue": "recY3CXZYMT6qrHJQ",
      "name": "The Four Seasons Reimagined (BalletX)",
      "link": "https://www.visitphilly.com/things-to-do/events/highmark-mann-50th-anniversary/",
      "venue_name": "Highmark Mann Center",
      "group_name": "Highmark Mann Center 50th Anniversary",
      "group": "recTtbjgqs7GIxUxv",
      "slug": "the-four-seasons-reimagined-balletx"
    },
    {
      "latitude": 39.901733,
      "date": "2026-06-14T23:00:00.000Z",
      "type": "Event",
      "longitude": -75.167594,
      "venue": "recu43PfeOwAs7uI7",
      "name": "🇨🇮 Côte d'Ivoire vs. 🇪🇨 Ecuador (Group E)",
      "link": "https://www.philadelphiaeagles.com/news/2026-fifa-world-cup-lincoln-financial-field-will-host-6-games",
      "venue_name": "Lincoln Financial Field",
      "group_name": "FIFA World Cup 2026",
      "group": "recX37CIyxy5rQsTK",
      "slug": "c-te-d-ivoire-vs-ecuador-group-e"
    },
    {
      "latitude": 39.983433,
      "date": "2026-06-17T00:00:00.000Z",
      "type": "Event",
      "longitude": -75.222908,
      "venue": "recY3CXZYMT6qrHJQ",
      "name": "A Hundred Years On",
      "link": "https://www.visitphilly.com/things-to-do/events/highmark-mann-50th-anniversary/",
      "venue_name": "Highmark Mann Center",
      "group_name": "Highmark Mann Center 50th Anniversary",
      "group": "recTtbjgqs7GIxUxv",
      "slug": "a-hundred-years-on"
    },
    {
      "latitude": 39.983433,
      "date": "2026-06-18T00:00:00.000Z",
      "type": "Event",
      "longitude": -75.222908,
      "venue": "recY3CXZYMT6qrHJQ",
      "name": "50 Years of Music in the Park",
      "link": "https://www.visitphilly.com/things-to-do/events/highmark-mann-50th-anniversary/",
      "venue_name": "Highmark Mann Center",
      "group_name": "Highmark Mann Center 50th Anniversary",
      "group": "recTtbjgqs7GIxUxv",
      "slug": "50-years-of-music-in-the-park"
    },
    {
      "latitude": 39.960266,
      "date": "2026-06-19T00:00:00.000Z",
      "type": "Event",
      "longitude": -75.173247,
      "venue": "recClakCY7A8HwrrZ",
      "name": "WAWA Welcome America",
      "link": "https://july4thphilly.com/",
      "venue_name": "Benjamin Franklin Parkway",
      "end_date": "2026-07-04",
      "group_name": "America250 Celebration",
      "group": "recy35IiiNta9LpUN",
      "slug": "wawa-welcome-america"
    },
    {
      "latitude": 39.901733,
      "date": "2026-06-20T00:30:00.000Z",
      "type": "Event",
      "longitude": -75.167594,
      "venue": "recu43PfeOwAs7uI7",
      "name": "🇧🇷 Brazil vs. 🇭🇹 Haiti (Group C)",
      "link": "https://www.philadelphiaeagles.com/news/2026-fifa-world-cup-lincoln-financial-field-will-host-6-games",
      "venue_name": "Lincoln Financial Field",
      "group_name": "FIFA World Cup 2026",
      "group": "recX37CIyxy5rQsTK",
      "slug": "brazil-vs-haiti-group-c"
    },
    {
      "latitude": 39.949619,
      "type": "Event",
      "longitude": -75.150287,
      "venue": "recs77DucqwVLXjhp",
      "name": "All-Star Red Carpet Show",
      "link": "https://www.mlb.com/all-star/schedule",
      "venue_name": "Independence Mall",
      "group_name": "MLB All-Star Week 2026",
      "group": "rectWQwoK0fn7rU78",
      "slug": "all-star-red-carpet-show"
    },
    {
      "latitude": 39.983433,
      "date": "2026-06-04T00:00:00.000Z",
      "type": "Event",
      "longitude": -75.222908,
      "venue": "recY3CXZYMT6qrHJQ",
      "name": "The Four Seasons Reimagined (BalletX)",
      "link": "https://www.visitphilly.com/things-to-do/events/highmark-mann-50th-anniversary/",
      "venue_name": "Highmark Mann Center",
      "group_name": "Highmark Mann Center 50th Anniversary",
      "group": "recTtbjgqs7GIxUxv",
      "slug": "the-four-seasons-reimagined-balletx"
    },
    {
      "latitude": 39.979491,
      "date": "2026-06-20T00:00:00.000Z",
      "type": "Event",
      "longitude": -75.209129,
      "venue": "recKHCR6V06T1LY5z",
      "name": "Philly Fair 250 - Day 1",
      "link": "https://july4thphilly.com/event/philly-fair-250-day-1/",
      "venue_name": "Centennial District",
      "group_name": "America250 Celebration",
      "group": "recy35IiiNta9LpUN",
      "slug": "philly-fair-250-day-1"
    },
    {
      "latitude": 39.979491,
      "date": "2026-06-21T00:00:00.000Z",
      "type": "Event",
      "longitude": -75.209129,
      "venue": "recKHCR6V06T1LY5z",
      "name": "Philly Fair 250 - Day 2",
      "link": "https://july4thphilly.com/event/philly-fair-250-day-2/",
      "venue_name": "Centennial District",
      "group_name": "America250 Celebration",
      "group": "recy35IiiNta9LpUN",
      "slug": "philly-fair-250-day-2"
    },
    {
      "latitude": 39.979491,
      "date": "2026-06-22T00:00:00.000Z",
      "type": "Event",
      "longitude": -75.209129,
      "venue": "recKHCR6V06T1LY5z",
      "name": "Philly Fair 250 - Jefferson Community Day",
      "link": "https://july4thphilly.com/event/philly-fair-250-day-3/",
      "venue_name": "Centennial District",
      "group_name": "America250 Celebration",
      "group": "recy35IiiNta9LpUN",
      "slug": "philly-fair-250-jefferson-community-day"
    },
    {
      "latitude": 39.901733,
      "date": "2026-06-22T21:00:00.000Z",
      "type": "Event",
      "longitude": -75.167594,
      "venue": "recu43PfeOwAs7uI7",
      "name": "🇫🇷 France vs. Playoff 1 Winner (Group I)",
      "link": "https://www.philadelphiaeagles.com/news/2026-fifa-world-cup-lincoln-financial-field-will-host-6-games",
      "venue_name": "Lincoln Financial Field",
      "group_name": "FIFA World Cup 2026",
      "group": "recX37CIyxy5rQsTK",
      "slug": "france-vs-playoff-1-winner-group-i"
    },
    {
      "latitude": 40.0429,
      "date": "2026-06-24T00:00:00.000Z",
      "type": "Event",
      "longitude": -75.104332,
      "venue": "recoXvJhrDrCZ5JcZ",
      "name": "Five Points Night Market",
      "link": "https://july4thphilly.com/event/five-points-night-market/",
      "venue_name": "Five Points",
      "group_name": "America250 Celebration",
      "group": "recy35IiiNta9LpUN",
      "slug": "five-points-night-market"
    },
    {
      "latitude": 39.995881,
      "date": "2026-06-25T00:00:00.000Z",
      "type": "Event",
      "longitude": -75.189787,
      "venue": "recoWWE9IhuCcH0ek",
      "name": "Celebration of Black Music Month + Fireworks",
      "link": "https://july4thphilly.com/event/celebration-of-black-music-month-and-fireworks/",
      "venue_name": "The Dell Music Center",
      "group_name": "America250 Celebration",
      "group": "recy35IiiNta9LpUN",
      "slug": "celebration-of-black-music-month-fireworks"
    },
    {
      "latitude": 39.901733,
      "date": "2026-06-25T20:00:00.000Z",
      "type": "Event",
      "longitude": -75.167594,
      "venue": "recu43PfeOwAs7uI7",
      "name": "🇨🇼 Curaçao vs. 🇨🇮 Côte d'Ivoire (Group E)",
      "link": "https://www.philadelphiaeagles.com/news/2026-fifa-world-cup-lincoln-financial-field-will-host-6-games",
      "venue_name": "Lincoln Financial Field",
      "group_name": "FIFA World Cup 2026",
      "group": "recX37CIyxy5rQsTK",
      "slug": "cura-ao-vs-c-te-d-ivoire-group-e"
    },
    {
      "latitude": 39.981741,
      "date": "2026-06-26T00:00:00.000Z",
      "type": "Event",
      "longitude": -75.195543,
      "venue": "recNfZuAbivIRXfSw",
      "name": "Kidchella Music Festival",
      "link": "https://july4thphilly.com/event/kidchella-music-festival/",
      "venue_name": "Smith Memorial Playground",
      "group_name": "America250 Celebration",
      "group": "recy35IiiNta9LpUN",
      "slug": "kidchella-music-festival"
    },
    {
      "latitude": 39.953507,
      "date": "2026-06-27T00:00:00.000Z",
      "type": "Event",
      "longitude": -75.165812,
      "venue": "recVfVgTMuaWuTfaP",
      "name": "Concilio's Annual Hispanic Fiesta",
      "link": "https://july4thphilly.com/event/concilios-annual-hispanic-fiesta/",
      "venue_name": "Love Park",
      "group_name": "America250 Celebration",
      "group": "recy35IiiNta9LpUN",
      "slug": "concilio-s-annual-hispanic-fiesta"
    },
    {
      "latitude": 39.948505,
      "date": "2026-06-27T00:00:00.000Z",
      "type": "Event",
      "longitude": -75.139575,
      "venue": "rechjffwALql7ycaL",
      "name": "Waterfront Concert and Fireworks",
      "link": "https://july4thphilly.com/event/waterfront-concert-and-firworks/",
      "venue_name": "Independence Blue Cross RiverRink Summerfest",
      "group_name": "America250 Celebration",
      "group": "recy35IiiNta9LpUN",
      "slug": "waterfront-concert-and-fireworks"
    },
    {
      "latitude": 39.901733,
      "date": "2026-06-27T21:00:00.000Z",
      "type": "Event",
      "longitude": -75.167594,
      "venue": "recu43PfeOwAs7uI7",
      "name": "🇭🇷 Croatia vs. 🇬🇭 Ghana (Group L)",
      "link": "https://www.philadelphiaeagles.com/news/2026-fifa-world-cup-lincoln-financial-field-will-host-6-games",
      "venue_name": "Lincoln Financial Field",
      "group_name": "FIFA World Cup 2026",
      "group": "recX37CIyxy5rQsTK",
      "slug": "croatia-vs-ghana-group-l"
    },
    {
      "latitude": 39.94728,
      "date": "2026-06-28T00:00:00.000Z",
      "type": "Event",
      "longitude": -75.146075,
      "venue": "recnvjr8a02GtDAAg",
      "name": "Gospel on Independence",
      "link": "https://july4thphilly.com/event/gospel-on-independence/",
      "venue_name": "Independence National Historic Park",
      "group_name": "America250 Celebration",
      "group": "recy35IiiNta9LpUN",
      "slug": "gospel-on-independence"
    },
    {
      "latitude": 39.94671,
      "date": "2026-06-30T00:00:00.000Z",
      "type": "Event",
      "longitude": -75.165834,
      "venue": "rec6bfyu38E1BRcfJ",
      "name": "The Philadelphia Orchestra Free Pride Concert and Celebration",
      "link": "https://july4thphilly.com/event/pride-concert/",
      "venue_name": "The Kimmel Center for the Performing Arts",
      "group_name": "America250 Celebration",
      "group": "recy35IiiNta9LpUN",
      "slug": "the-philadelphia-orchestra-free-pride-concert-and-celebration"
    },
    {
      "latitude": 39.949619,
      "date": "2026-07-01T00:00:00.000Z",
      "type": "Event",
      "longitude": -75.150287,
      "venue": "recs77DucqwVLXjhp",
      "name": "WAWA Hoagie Day",
      "link": "https://july4thphilly.com/event/wawa-hoagie-day/",
      "venue_name": "Independence Mall",
      "group_name": "America250 Celebration",
      "group": "recy35IiiNta9LpUN",
      "slug": "wawa-hoagie-day"
    },
    {
      "latitude": 39.949619,
      "date": "2026-07-02T00:00:00.000Z",
      "type": "Event",
      "longitude": -75.150287,
      "venue": "recs77DucqwVLXjhp",
      "name": "Float Fest",
      "link": "https://july4thphilly.com/event/float-fest/",
      "venue_name": "Independence Mall",
      "group_name": "America250 Celebration",
      "group": "recy35IiiNta9LpUN",
      "slug": "float-fest"
    },
    {
      "latitude": 39.94728,
      "date": "2026-07-03T00:00:00.000Z",
      "type": "Event",
      "longitude": -75.146075,
      "venue": "recnvjr8a02GtDAAg",
      "name": "Pops on Independence",
      "link": "https://july4thphilly.com/event/pops-on-independence/",
      "venue_name": "Independence National Historic Park",
      "group_name": "America250 Celebration",
      "group": "recy35IiiNta9LpUN",
      "slug": "pops-on-independence"
    },
    {
      "latitude": 39.960266,
      "date": "2026-07-04T00:00:00.000Z",
      "type": "Event",
      "longitude": -75.173247,
      "venue": "recClakCY7A8HwrrZ",
      "name": "One Philly Unity Concert for America",
      "link": "https://www.instagram.com/p/DYnCDnyR2kz/?hl=en",
      "venue_name": "Benjamin Franklin Parkway",
      "group_name": "America250 Celebration",
      "group": "recy35IiiNta9LpUN",
      "slug": "one-philly-unity-concert-for-america"
    },
    {
      "latitude": 39.954821,
      "type": "Event",
      "longitude": -75.159533,
      "venue": "recIrPNBQ52N2KxtE",
      "name": "2026 MLB Draft",
      "link": "https://www.mlb.com/all-star/schedule",
      "venue_name": "Pennsylvania Convention Center",
      "group_name": "MLB All-Star Week 2026",
      "group": "rectWQwoK0fn7rU78",
      "slug": "2026-mlb-draft"
    },
    {
      "latitude": 39.90617,
      "type": "Event",
      "longitude": -75.166473,
      "venue": "recMirDGW7E4sQpbJ",
      "name": "MLB All-Star Futures Game",
      "link": "https://www.mlb.com/all-star/schedule",
      "venue_name": "Citizens Bank Park",
      "group_name": "MLB All-Star Week 2026",
      "group": "rectWQwoK0fn7rU78",
      "slug": "mlb-all-star-futures-game"
    },
    {
      "latitude": 39.90617,
      "type": "Event",
      "longitude": -75.166473,
      "venue": "recMirDGW7E4sQpbJ",
      "name": "T-Mobile Home Run Derby",
      "link": "https://www.mlb.com/all-star/schedule",
      "venue_name": "Citizens Bank Park",
      "group_name": "MLB All-Star Week 2026",
      "group": "rectWQwoK0fn7rU78",
      "slug": "t-mobile-home-run-derby"
    },
    {
      "latitude": 39.90617,
      "type": "Event",
      "longitude": -75.166473,
      "venue": "recMirDGW7E4sQpbJ",
      "name": "MLB All-Star Game",
      "link": "https://www.mlb.com/all-star/schedule",
      "venue_name": "Citizens Bank Park",
      "group_name": "MLB All-Star Week 2026",
      "group": "rectWQwoK0fn7rU78",
      "slug": "mlb-all-star-game"
    },
    {
      "latitude": 39.954821,
      "type": "Event",
      "longitude": -75.159533,
      "venue": "recIrPNBQ52N2KxtE",
      "name": "Capital One All-Star Village",
      "link": "https://www.mlb.com/all-star/schedule",
      "venue_name": "Pennsylvania Convention Center",
      "group_name": "MLB All-Star Week 2026",
      "group": "rectWQwoK0fn7rU78",
      "slug": "capital-one-all-star-village"
    },
    {
      "latitude": 39.954821,
      "type": "Event",
      "longitude": -75.159533,
      "venue": "recIrPNBQ52N2KxtE",
      "name": "Capital One All-Star Village",
      "link": "https://www.mlb.com/all-star/schedule",
      "venue_name": "Pennsylvania Convention Center",
      "group_name": "MLB All-Star Week 2026",
      "group": "rectWQwoK0fn7rU78",
      "slug": "capital-one-all-star-village"
    },
    {
      "latitude": 39.94728,
      "date": "2026-07-02T00:00:00.000Z",
      "type": "Event",
      "longitude": -75.146075,
      "venue": "recnvjr8a02GtDAAg",
      "name": "Salute to Service: The United States Army Field Band and Soldiers' Chorus",
      "link": "https://july4thphilly.com/event/the-u-s-army-field-band-on-independence-mall/",
      "venue_name": "Independence National Historic Park",
      "group_name": "America250 Celebration",
      "group": "recy35IiiNta9LpUN",
      "slug": "salute-to-service-the-united-states-army-field-band-and-soldiers-chorus"
    },
    {
      "latitude": 39.949619,
      "date": "2026-07-03T00:00:00.000Z",
      "type": "Event",
      "longitude": -75.150287,
      "venue": "recs77DucqwVLXjhp",
      "name": "38th Annual Liberty Medal Ceremony",
      "link": "https://july4thphilly.com/event/liberty-medal/",
      "venue_name": "Independence Mall",
      "group_name": "America250 Celebration",
      "group": "recy35IiiNta9LpUN",
      "slug": "38th-annual-liberty-medal-ceremony"
    },
    {
      "latitude": 39.949619,
      "date": "2026-07-04T00:00:00.000Z",
      "type": "Event",
      "longitude": -75.150287,
      "venue": "recs77DucqwVLXjhp",
      "name": "Celebration of Freedom",
      "link": "https://july4thphilly.com/event/celebration-of-freedom-ceremony/",
      "venue_name": "Independence Mall",
      "group_name": "America250 Celebration",
      "group": "recy35IiiNta9LpUN",
      "slug": "celebration-of-freedom"
    },
    {
      "latitude": 39.954821,
      "type": "Event",
      "longitude": -75.159533,
      "venue": "recIrPNBQ52N2KxtE",
      "name": "Capital One All-Star Village",
      "link": "https://www.mlb.com/all-star/schedule",
      "venue_name": "Pennsylvania Convention Center",
      "group_name": "MLB All-Star Week 2026",
      "group": "rectWQwoK0fn7rU78",
      "slug": "capital-one-all-star-village"
    },
    {
      "latitude": 39.945423,
      "date": "2026-07-02T00:00:00.000Z",
      "type": "Event",
      "longitude": -75.143814,
      "venue": "recA0cIEI2Oy2BWGY",
      "name": "All American Block Party",
      "link": "https://july4thphilly.com/event/all-american-block-party/",
      "venue_name": "Dock Street",
      "group_name": "America250 Celebration",
      "group": "recy35IiiNta9LpUN",
      "slug": "all-american-block-party"
    },
    {
      "latitude": 39.90617,
      "date": "2026-07-12T00:00:00.000Z",
      "type": "Event",
      "longitude": -75.166473,
      "venue": "recMirDGW7E4sQpbJ",
      "name": "MLBx All-Star 3-on-3 (follows Futures Game)",
      "link": "https://www.mlb.com/all-star/schedule",
      "venue_name": "Citizens Bank Park",
      "group_name": "MLB All-Star Week 2026",
      "group": "rectWQwoK0fn7rU78",
      "slug": "mlbx-all-star-3-on-3-follows-futures-game"
    },
    {
      "latitude": 39.954821,
      "type": "Event",
      "longitude": -75.159533,
      "venue": "recIrPNBQ52N2KxtE",
      "name": "Capital One All-Star Village",
      "link": "https://www.mlb.com/all-star/schedule",
      "venue_name": "Pennsylvania Convention Center",
      "group_name": "MLB All-Star Week 2026",
      "group": "rectWQwoK0fn7rU78",
      "slug": "capital-one-all-star-village"
    },
    {
      "latitude": 39.90617,
      "type": "Event",
      "longitude": -75.166473,
      "venue": "recMirDGW7E4sQpbJ",
      "name": "HBCU Swingman Classic",
      "link": "https://www.mlb.com/all-star/schedule",
      "venue_name": "Citizens Bank Park",
      "group_name": "MLB All-Star Week 2026",
      "group": "rectWQwoK0fn7rU78",
      "slug": "hbcu-swingman-classic"
    },
    {
      "latitude": 39.949889,
      "date": "2026-07-02T00:00:00.000Z",
      "type": "Event",
      "longitude": -75.143753,
      "venue": "recmerg7ZkoPy945c",
      "name": "Red, White, and Blue, To Do",
      "link": "https://july4thphilly.com/event/red-white-and-blue-to-do/",
      "venue_name": "Historic District",
      "group_name": "America250 Celebration",
      "group": "recy35IiiNta9LpUN",
      "slug": "red-white-and-blue-to-do"
    },
    {
      "latitude": 39.949619,
      "date": "2026-07-03T00:00:00.000Z",
      "type": "Event",
      "longitude": -75.150287,
      "venue": "recs77DucqwVLXjhp",
      "name": "Salute to Independence Semiquincentennial Parade",
      "link": "https://july4thphilly.com/event/salute-to-independence-parade/",
      "venue_name": "Independence Mall",
      "group_name": "America250 Celebration",
      "group": "recy35IiiNta9LpUN",
      "slug": "salute-to-independence-semiquincentennial-parade"
    }
  ]
}